City_ID,City,Lat,Lng,Max Temp,Humidity,Cloudiness,Wind Speed,Country,Date
0,puerto ayora,-0.7393,-90.3518,23.08,100,100,2.98,EC,2024-05-12 10:32:55
1,uturoa,-16.7333,-151.4333,27.37,74,5,6.26,PF,2024-05-12 10:35:14
2,martinsville,36.6915,-79.8725,10.25,91,2,2.15,US,2024-05-12 10:38:46
3,port alfred,-33.5906,26.891,19.54,64,2,3.13,ZA,2024-05-12 10:33:58
4,xinyuan,37.3,99.0,12.59,19,7,6.08,CN,2024-05-12 10:38:46
5,bembereke,10.2283,2.6634,33.34,38,100,2.36,BJ,2024-05-12 10:34:03
6,ust-nera,64.5667,143.2,-0.58,63,79,1.86,RU,2024-05-12 10:33:39
7,margaret river,-33.95,115.0667,15.92,92,100,4.59,AU,2024-05-12 10:29:34
8,badger,64.8,-147.5333,7.27,59,0,2.57,US,2024-05-12 10:30:30
9,papatowai,-46.5619,169.4708,10.19,90,99,4.41,NZ,2024-05-12 10:32:55
10,keflavik,64.0049,-22.5624,9.95,87,100,6.17,IS,2024-05-12 10:33:08
11,adamstown,-25.066,-130.1015,20.08,66,0,3.12,PN,2024-05-12 10:33:08
12,waitangi,-43.9535,-176.5597,10.46,92,100,5.81,NZ,2024-05-12 10:32:57
13,gao,16.6362,1.637,40.21,23,73,8.97,ML,2024-05-12 10:33:26
14,albany,42.6001,-73.9662,8.46,92,100,2.88,US,2024-05-12 10:32:57
15,hawaiian paradise park,19.5933,-154.9731,21.73,98,100,1.54,US,2024-05-12 10:33:00
16,saipan,15.1355,145.701,28.39,74,20,5.14,MP,2024-05-12 10:33:19
17,olyokminsk,60.3736,120.4264,6.87,76,100,3.27,RU,2024-05-12 10:38:49
18,bilibino,68.0546,166.4372,-2.0,91,97,0.98,RU,2024-05-12 10:32:54
19,georgetown,5.4112,100.3354,32.97,58,20,3.09,MY,2024-05-12 10:30:01
20,invercargill,-46.4,168.35,10.57,92,100,3.58,NZ,2024-05-12 10:30:00
21,enewetak,11.3474,162.3373,27.69,83,89,7.52,MH,2024-05-12 10:33:54
22,kavieng,-2.5744,150.7967,28.7,77,87,0.27,PG,2024-05-12 10:38:50
23,thompson,55.7435,-97.8558,3.09,87,100,8.23,CA,2024-05-12 10:32:58
24,utrik,11.2278,169.8474,27.17,82,99,9.08,MH,2024-05-12 10:34:24
25,blackmans bay,-43.0167,147.3167,13.07,91,60,0.45,AU,2024-05-12 10:32:54
26,nimbahera,24.6167,74.6833,40.38,13,32,5.92,IN,2024-05-12 10:35:23
27,whitehorse,60.7161,-135.0538,5.43,48,40,7.2,CA,2024-05-12 10:33:01
28,afaahiti,-17.75,-149.2833,24.93,84,27,5.38,PF,2024-05-12 10:33:10
29,port-aux-francais,-49.35,70.2167,6.18,89,74,14.52,TF,2024-05-12 10:32:57
30,port lincoln,-34.7333,135.8667,13.74,77,13,1.64,AU,2024-05-12 10:33:05
31,puerto natales,-51.7236,-72.4875,-0.39,89,64,0.56,CL,2024-05-12 10:33:13
32,grytviken,-54.2811,-36.5092,1.64,88,94,5.09,GS,2024-05-12 10:32:56
33,isafjordur,66.0755,-23.124,5.02,75,100,1.54,IS,2024-05-12 10:33:14
34,andergrove,-21.0833,149.1833,19.8,82,0,3.69,AU,2024-05-12 10:38:52
35,iskateley,67.6803,53.1512,-3.88,94,100,5.36,RU,2024-05-12 10:33:50
36,abu,24.6,72.7,34.93,16,1,4.15,IN,2024-05-12 10:35:00
37,punta arenas,-53.15,-70.9167,-0.94,80,0,4.12,CL,2024-05-12 10:34:05
38,kisslegg,47.7889,9.8838,22.35,26,59,2.0,DE,2024-05-12 10:38:52
39,port augusta,-32.5,137.7667,13.39,82,10,3.72,AU,2024-05-12 10:31:31
40,levuka,50.1834,-105.4011,2.9,51,77,2.65,CA,2024-05-12 10:38:53
41,susuman,62.7833,148.1667,3.32,69,100,5.36,RU,2024-05-12 10:33:23
42,morteros,-30.7116,-61.9986,11.68,90,2,3.58,AR,2024-05-12 10:38:54
43,ribeira grande,38.5167,-28.7,19.32,88,40,5.14,PT,2024-05-12 10:33:16
44,kodiak,57.79,-152.4072,1.73,93,40,1.54,US,2024-05-12 10:33:10
45,burang,30.25,81.1667,7.27,67,97,4.17,CN,2024-05-12 10:34:52
46,new norfolk,-42.7826,147.0587,13.72,97,69,0.78,AU,2024-05-12 10:33:24
47,avarua,-21.2078,-159.775,25.03,73,100,1.54,CK,2024-05-12 10:29:35
48,alappuzha,9.49,76.3264,30.56,70,100,4.47,IN,2024-05-12 10:38:55
49,nanping,26.645,118.1736,22.3,94,100,1.23,CN,2024-05-12 10:38:55
50,west island,-12.1568,96.8225,28.99,84,40,5.66,CC,2024-05-12 10:33:11
51,nova sintra,14.8667,-24.7167,20.93,79,32,8.01,CV,2024-05-12 10:33:21
52,aykhal,66.0,111.5,-2.5,93,100,5.83,RU,2024-05-12 10:33:08
53,mili,6.0815,171.735,27.78,80,100,7.65,MH,2024-05-12 10:38:56
54,lebu,-37.6167,-73.65,7.11,86,0,2.63,CL,2024-05-12 10:33:32
55,ilulissat,69.2167,-51.1,3.01,70,100,6.17,GL,2024-05-12 10:33:07
56,nouadhibou,20.931,-17.0347,22.99,60,81,11.83,MR,2024-05-12 10:37:48
57,hasaki,35.7333,140.8333,21.27,77,99,10.04,JP,2024-05-12 10:33:11
58,geraldton,-28.7667,114.6,24.23,64,100,6.69,AU,2024-05-12 10:31:54
59,ushuaia,-54.8,-68.3,2.81,60,75,9.77,AR,2024-05-12 10:33:20
60,bethel,41.3712,-73.414,9.19,83,100,0.0,US,2024-05-12 10:32:54
61,bredasdorp,-34.5322,20.0403,18.51,51,6,5.62,ZA,2024-05-12 10:31:48
62,cova figueira,14.8905,-24.2934,22.8,71,28,6.85,CV,2024-05-12 10:38:59
63,flin flon,54.7682,-101.865,3.72,79,95,5.0,CA,2024-05-12 10:37:22
64,iqaluit,63.7506,-68.5145,-8.15,73,100,9.26,CA,2024-05-12 10:32:54
65,whakatane,-37.9585,176.9854,8.76,88,7,2.33,NZ,2024-05-12 10:39:00
66,cabedelo,-6.9811,-34.8339,25.37,76,87,3.61,BR,2024-05-12 10:33:47
67,longyearbyen,78.2186,15.6401,1.91,69,40,4.63,SJ,2024-05-12 10:34:48
68,berdigestyakh,62.0989,126.6992,3.04,64,99,2.29,RU,2024-05-12 10:35:12
69,proletariy,58.4342,31.7046,7.29,51,97,3.3,RU,2024-05-12 10:39:01
70,kudahuvadhoo,2.6708,72.8944,29.2,78,77,5.1,MV,2024-05-12 10:35:32
71,port mathurin,-19.6833,63.4167,25.53,72,32,8.72,MU,2024-05-12 10:33:34
72,san ignacio de velasco,-16.3667,-60.95,20.42,71,0,1.56,BO,2024-05-12 10:39:02
73,atasu,48.6814,71.6433,21.68,22,0,1.98,KZ,2024-05-12 10:39:02
74,aasiaat,68.7098,-52.8699,0.64,87,100,7.5,GL,2024-05-12 10:33:14
75,sao raimundo nonato,-9.0153,-42.6994,26.61,69,22,3.17,BR,2024-05-12 10:39:03
76,weno,7.4515,151.8468,28.97,89,100,4.12,FM,2024-05-12 10:33:01
77,merizo village,13.2658,144.6691,28.32,86,76,5.5,GU,2024-05-12 10:35:04
78,holmsund,63.706,20.3641,15.97,62,40,3.6,SE,2024-05-12 10:39:04
79,yass,-34.8333,148.9167,10.84,86,88,3.19,AU,2024-05-12 10:39:04
80,mount pearl,47.5166,-52.7813,3.31,97,100,9.77,CA,2024-05-12 10:31:49
81,northam,51.0333,-4.2167,16.48,83,79,2.84,GB,2024-05-12 10:39:05
82,plastun,44.7561,136.2939,9.17,82,68,1.85,RU,2024-05-12 10:39:05
83,wulingyuan,29.3494,110.5441,20.66,85,100,1.41,CN,2024-05-12 10:39:05
84,haiku-pauwela,20.9219,-156.3051,21.13,85,0,2.68,US,2024-05-12 10:33:27
85,limon,10.0,-83.0333,25.59,85,100,2.43,CR,2024-05-12 10:39:06
86,guangshui,31.6199,113.9978,22.18,53,77,2.3,CN,2024-05-12 10:39:06
87,little mountain,41.2444,-112.2547,13.14,73,4,1.89,US,2024-05-12 10:39:06
88,kupino,54.3663,77.2981,19.17,22,26,5.0,RU,2024-05-12 10:39:06
89,prado,-17.3411,-39.2208,25.91,78,9,1.87,BR,2024-05-12 10:39:07
90,san patricio,28.017,-97.5169,27.92,92,64,2.54,US,2024-05-12 10:39:07
91,wailua homesteads,22.0669,-159.378,21.24,85,75,3.09,US,2024-05-12 10:33:03
92,edinburgh of the seven seas,-37.0676,-12.3116,15.69,88,100,5.62,SH,2024-05-12 10:33:03
93,xai-xai,-25.0519,33.6442,25.59,73,73,7.25,MZ,2024-05-12 10:39:08
94,ancud,-41.8697,-73.8203,4.3,81,42,1.37,CL,2024-05-12 10:30:15
95,sahiwal,30.6667,73.1,41.53,7,1,5.49,PK,2024-05-12 10:39:08
96,pisco,-13.7,-76.2167,15.03,88,20,0.51,PE,2024-05-12 10:29:06
97,simanggang,1.2472,111.4528,31.99,74,100,0.51,MY,2024-05-12 10:33:10
98,stanley,54.868,-1.6985,19.17,69,0,3.09,GB,2024-05-12 10:33:42
99,naze,28.3667,129.4833,22.51,90,100,3.44,JP,2024-05-12 10:39:09
100,taroa,8.7058,171.2275,27.35,79,100,5.67,MH,2024-05-12 10:39:09
101,sitka,57.0531,-135.33,8.94,66,100,5.14,US,2024-05-12 10:33:15
102,al mindak,20.1588,41.2834,28.78,36,2,6.34,SA,2024-05-12 10:39:10
103,auki,-8.7676,160.7034,25.22,83,85,2.44,SB,2024-05-12 10:39:10
104,ixtapa,20.7,-105.2,22.9,85,1,0.8,MX,2024-05-12 10:39:10
105,happy valley-goose bay,53.3168,-60.3315,5.17,70,75,1.54,CA,2024-05-12 10:33:25
106,fisterra,42.9049,-9.2629,16.53,83,97,2.34,ES,2024-05-12 10:33:27
107,tiksi,71.6872,128.8694,-5.06,91,100,1.75,RU,2024-05-12 10:33:04
108,devon,50.75,-3.75,21.6,80,81,2.2,GB,2024-05-12 10:39:11
109,as saffaniyah,27.9708,48.73,33.49,30,54,7.79,SA,2024-05-12 10:39:11
110,yevpatoriya,45.1972,33.3558,17.47,38,45,6.18,UA,2024-05-12 10:39:11
111,inonu,37.3167,33.7667,15.15,53,85,3.49,TR,2024-05-12 10:39:11
112,yatou,37.15,122.3833,13.11,57,0,2.34,CN,2024-05-12 10:32:49
113,coahuayana de hidalgo,18.7,-103.6583,21.56,85,22,1.34,MX,2024-05-12 10:39:12
114,yellowknife,62.456,-114.3525,-1.71,88,40,3.6,CA,2024-05-12 10:32:56
115,ha'il,27.5219,41.6907,37.01,15,0,5.14,SA,2024-05-12 10:39:13
116,lerwick,60.1545,-1.1494,11.0,79,100,10.07,GB,2024-05-12 10:39:13
117,khandyga,62.6667,135.6,3.72,59,88,2.08,RU,2024-05-12 10:35:06
118,orchard homes,46.8633,-114.0484,12.08,71,0,2.24,US,2024-05-12 10:39:14
119,tuba city,36.135,-111.2399,10.53,50,20,1.35,US,2024-05-12 10:39:14
120,bandon,51.7469,-8.7425,15.77,82,86,3.57,IE,2024-05-12 10:39:14
121,ambon,-3.6954,128.1814,27.15,95,40,1.03,ID,2024-05-12 10:39:14
122,portland,45.5234,-122.6762,15.26,78,0,1.79,US,2024-05-12 10:31:30
123,tolanaro,-25.0319,46.9987,29.04,65,20,8.23,MG,2024-05-12 10:30:46
124,zhanaozen,43.3,52.8,24.95,37,67,12.01,KZ,2024-05-12 10:39:15
125,batang,-6.4846,110.7083,27.62,82,100,4.95,ID,2024-05-12 10:31:24
126,cox's bazar,21.4532,91.9798,30.08,65,3,4.05,BD,2024-05-12 10:37:06
127,kolyshley,52.7005,44.5367,6.34,56,88,5.66,RU,2024-05-12 10:34:48
128,saiha,22.4833,92.9667,29.46,50,64,1.32,IN,2024-05-12 10:36:07
129,bridgeport,41.167,-73.2048,9.99,83,100,2.57,US,2024-05-12 10:39:16
130,nikolayevsk-on-amure,53.1406,140.73,1.23,97,100,1.79,RU,2024-05-12 10:39:16
131,vila velha,-20.3297,-40.2925,23.97,94,0,1.03,BR,2024-05-12 10:33:16
132,contamana,-7.3333,-75.0167,26.02,80,100,0.83,PE,2024-05-12 10:39:16
133,tabou,4.423,-7.3528,29.23,77,96,2.6,CI,2024-05-12 10:35:27
134,tongliao,43.6125,122.2653,18.53,29,84,2.03,CN,2024-05-12 10:39:17
135,alice springs,-23.7,133.8833,13.75,51,82,2.57,AU,2024-05-12 10:33:47
136,anadyr,64.75,177.4833,-1.72,79,100,1.0,RU,2024-05-12 10:30:23
137,beyneu,45.3167,55.2,29.59,17,100,11.91,KZ,2024-05-12 10:39:17
138,pago pago,-14.2781,-170.7025,26.55,94,100,8.23,AS,2024-05-12 10:39:18
139,cooper's town,26.8667,-77.5167,24.75,74,38,6.4,BS,2024-05-12 10:39:18
140,luganville,-15.5333,167.1667,25.63,77,100,6.58,VU,2024-05-12 10:34:06
141,mahanoro,-19.9,48.8,26.56,62,99,1.75,MG,2024-05-12 10:39:19
142,klyuchi,52.2667,79.1667,19.93,22,0,3.2,RU,2024-05-12 10:33:13
143,klaksvik,62.2266,-6.589,13.51,92,100,5.61,FO,2024-05-12 10:34:28
144,kingston,17.997,-76.7936,27.53,83,20,3.09,JM,2024-05-12 10:32:59
145,roma,43.2128,-75.4557,9.97,95,100,3.6,US,2024-05-12 10:35:25
146,tsiombe,-25.3,45.4833,31.24,34,0,3.16,MG,2024-05-12 10:33:19
147,talnakh,69.4865,88.3972,0.11,89,100,3.46,RU,2024-05-12 10:33:20
148,chandur,19.7333,79.1833,36.21,33,24,3.35,IN,2024-05-12 10:39:20
149,chonchi,-42.6128,-73.8092,0.56,91,35,1.41,CL,2024-05-12 10:33:35
150,petropavlovsk-kamchatsky,53.0452,158.6483,7.47,75,0,3.58,RU,2024-05-12 10:30:52
151,batticaloa,7.7102,81.6924,30.95,68,76,4.5,LK,2024-05-12 10:39:20
152,kapuskasing,49.4169,-82.4331,4.0,93,20,3.6,CA,2024-05-12 10:33:25
153,cozumel,20.5083,-86.9458,26.64,89,79,6.34,MX,2024-05-12 10:39:20
154,mahina,-17.5065,-149.489,25.87,73,0,2.57,PF,2024-05-12 10:39:21
155,nova xavantina,-14.6667,-52.35,21.52,72,2,0.7,BR,2024-05-12 10:39:21
156,beri khas,28.7,76.5833,40.34,15,29,2.28,IN,2024-05-12 10:39:21
157,cabo san lucas,22.8909,-109.9124,24.17,58,67,5.87,MX,2024-05-12 10:34:35
158,swakopmund,-22.6833,14.5333,22.47,78,13,2.24,NA,2024-05-12 10:39:22
159,asentamiento humano nicolas de pierola,-11.95,-76.7,12.3,74,81,0.47,PE,2024-05-12 10:39:22
160,qulsary,46.9531,54.0198,27.53,24,100,11.2,KZ,2024-05-12 10:39:22
161,skovorodino,53.9833,123.9167,8.22,40,58,1.17,RU,2024-05-12 10:39:22
162,murun-kuren,49.6342,100.1625,26.49,15,96,8.13,MN,2024-05-12 10:39:23
163,sinabang,2.4803,96.3801,26.78,86,100,7.07,ID,2024-05-12 10:33:51
164,lihue,21.9789,-159.3672,21.58,85,75,3.09,US,2024-05-12 10:33:02
165,chibougamau,49.9168,-74.3659,7.79,66,100,3.09,CA,2024-05-12 10:33:43
166,flying fish cove,-10.4217,105.6791,26.82,89,75,4.12,CX,2024-05-12 10:30:34
167,virac,13.6333,124.2167,24.4,85,100,3.33,PH,2024-05-12 10:39:24
168,inongo,-1.95,18.2667,28.17,67,54,1.04,CD,2024-05-12 10:39:24
169,floro,61.5996,5.0328,21.24,63,75,4.12,NO,2024-05-12 10:39:24
170,glace bay,46.1969,-59.957,3.87,96,100,10.8,CA,2024-05-12 10:33:45
171,east london,-33.0153,27.9116,20.52,45,0,5.66,ZA,2024-05-12 10:32:35
172,jamestown,42.097,-79.2353,8.9,99,100,3.09,US,2024-05-12 10:31:39
173,kroya,-7.6331,109.2461,26.35,89,94,2.99,ID,2024-05-12 10:35:01
174,tidjikja,18.5564,-11.4271,39.9,10,15,5.74,MR,2024-05-12 10:39:25
175,yung shue wan,22.2333,114.1167,26.49,91,100,3.88,HK,2024-05-12 10:34:51
176,ugoofaaru,5.6667,73.0,29.92,71,100,3.82,MV,2024-05-12 10:39:26
177,funafuti,-8.5243,179.1942,27.0,94,75,2.57,TV,2024-05-12 10:39:26
178,puerto ayacucho,5.6639,-67.6236,24.67,90,92,1.47,VE,2024-05-12 10:39:26
179,mwene-ditu,-7.0,23.45,31.18,42,36,1.82,CD,2024-05-12 10:39:26
180,vilyuchinsk,52.9306,158.4028,8.29,64,85,1.74,RU,2024-05-12 10:29:54
181,vorgashor,67.5833,63.95,-5.11,95,60,3.5,RU,2024-05-12 10:30:25
182,el calafate,-50.3408,-72.2768,0.65,88,99,2.2,AR,2024-05-12 10:35:22
183,hamilton,39.1834,-84.5333,9.99,90,0,0.45,US,2024-05-12 10:33:40
184,seme,15.1942,-12.9448,38.74,15,6,3.2,SN,2024-05-12 10:39:27
185,pacific grove,36.6177,-121.9166,14.12,92,100,2.57,US,2024-05-12 10:34:33
186,holly springs,35.6513,-78.8336,13.15,90,1,2.54,US,2024-05-12 10:39:28
187,muravlenko,63.7898,74.523,3.2,95,98,3.88,RU,2024-05-12 10:33:45
188,namibe,-15.1961,12.1522,27.15,59,0,3.83,AO,2024-05-12 10:33:20
189,olonkinbyen,70.9221,-8.7187,1.55,98,100,6.04,SJ,2024-05-12 10:32:59
190,vryburg,-26.9566,24.7284,27.22,16,0,1.48,ZA,2024-05-12 10:39:29
191,micheweni,-4.9667,39.8333,28.0,75,44,6.32,TZ,2024-05-12 10:39:30
192,bozyazi,36.1082,32.9611,21.36,72,6,6.43,TR,2024-05-12 10:39:31
193,atafu village,-8.5421,-172.5159,29.48,76,100,5.69,TK,2024-05-12 10:33:47
194,winnemucca,40.973,-117.7357,6.03,70,0,3.09,US,2024-05-12 10:39:31
195,ta`u,-14.2336,-169.5144,27.59,82,96,6.66,AS,2024-05-12 10:35:19
196,hermanus,-34.4187,19.2345,19.33,56,6,6.55,ZA,2024-05-12 10:33:30
197,tangalle,6.024,80.7911,28.09,76,98,3.74,LK,2024-05-12 10:39:32
198,la crosse,43.8014,-91.2396,13.07,77,0,4.12,US,2024-05-12 10:35:21
199,antonio enes,-16.2325,39.9086,29.59,57,21,4.63,MZ,2024-05-12 10:39:32
200,pontianak,-0.0333,109.3333,27.99,88,75,1.54,ID,2024-05-12 10:39:32
201,kayangel,8.0823,134.7173,28.6,79,10,6.24,PW,2024-05-12 10:33:35
202,suva,-18.1416,178.4415,21.71,83,20,0.0,FJ,2024-05-12 10:30:56
203,valdivia,-39.8142,-73.2459,5.05,97,94,1.16,CL,2024-05-12 10:39:33
204,kupang,-10.1667,123.5833,29.32,79,20,7.2,ID,2024-05-12 10:37:34
205,teguise,29.0605,-13.564,21.12,56,20,11.32,ES,2024-05-12 10:39:34
206,sao felix do xingu,-6.6447,-51.995,24.95,83,11,0.77,BR,2024-05-12 10:39:34
207,oranjemund,-28.55,16.4333,18.27,59,0,5.49,NA,2024-05-12 10:35:33
208,newnham,-41.3833,147.1333,12.59,93,100,1.03,AU,2024-05-12 10:33:18
209,iquique,-20.2208,-70.1431,18.02,77,50,0.93,CL,2024-05-12 10:38:34
210,hilo,19.7297,-155.09,22.93,98,100,4.47,US,2024-05-12 10:33:24
211,villa dolores,-31.9459,-65.1896,8.71,65,60,0.51,AR,2024-05-12 10:39:35
212,devils lake,48.1128,-98.8651,9.97,79,0,0.89,US,2024-05-12 10:39:35
213,calama,-22.4667,-68.9333,9.27,23,0,7.2,CL,2024-05-12 10:34:23
214,zeya,53.75,127.2667,11.38,49,73,2.09,RU,2024-05-12 10:33:06
215,necochea,-38.5473,-58.7368,8.99,70,100,3.53,AR,2024-05-12 10:39:36
216,la'ie,21.6477,-157.9253,21.12,94,19,2.9,US,2024-05-12 10:39:36
217,kilindoni,-7.9139,39.6668,27.3,75,46,5.38,TZ,2024-05-12 10:39:37
218,vilhena,-12.7406,-60.1458,20.22,82,63,1.39,BR,2024-05-12 10:39:37
219,tumut,-35.3,148.2167,10.43,72,45,2.16,AU,2024-05-12 10:37:47
220,leer,53.2316,7.461,21.67,66,7,1.34,DE,2024-05-12 10:39:37
221,sirte,31.2089,16.5887,22.08,57,0,4.24,LY,2024-05-12 10:39:38
222,carinhanha,-14.3047,-43.765,26.91,61,74,2.54,BR,2024-05-12 10:39:38
223,shimoda,34.6667,138.95,19.5,86,100,3.7,JP,2024-05-12 10:37:08
224,saldanha,-33.0117,17.9442,22.03,58,3,5.32,ZA,2024-05-12 10:39:38
225,tura,25.5198,90.2201,25.02,76,65,0.07,IN,2024-05-12 10:34:27
226,sola,-13.8833,167.55,26.84,73,41,11.62,VU,2024-05-12 10:39:39
227,huarmey,-10.0681,-78.1522,17.91,93,97,2.24,PE,2024-05-12 10:34:04
228,yanykurgan,43.915,67.2481,27.64,22,1,3.43,KZ,2024-05-12 10:39:40
229,ma'rib,15.4591,45.3253,35.11,16,70,4.7,YE,2024-05-12 10:39:40
230,mount darwin,-16.7725,31.5838,30.1,27,0,3.51,ZW,2024-05-12 10:39:40
231,paita,-5.0892,-81.1144,19.92,80,100,5.22,PE,2024-05-12 10:39:41
232,constantia,44.1833,28.65,17.61,83,97,6.59,RO,2024-05-12 10:33:02
233,morondava,-20.2833,44.2833,28.6,52,0,5.02,MG,2024-05-12 10:34:52
234,santa ana,33.7456,-117.8678,16.36,85,100,1.79,US,2024-05-12 10:32:59
235,bangor,54.6534,-5.669,19.16,72,97,2.57,GB,2024-05-12 10:39:41
236,brookings,44.3114,-96.7984,14.19,65,0,3.6,US,2024-05-12 10:31:33
237,mineros,-17.1167,-63.2333,24.38,72,100,1.8,BO,2024-05-12 10:39:42
238,gejiu,23.306,103.1635,17.84,61,68,0.57,CN,2024-05-12 10:39:42
239,nuku'alofa,-21.1333,-175.2,22.19,73,40,3.6,TO,2024-05-12 10:39:43
240,sydney,-33.8679,151.2073,16.44,90,75,4.63,AU,2024-05-12 10:35:41
241,masallatah,32.6167,14.0,23.72,39,0,2.36,LY,2024-05-12 10:39:43
242,lompoc,34.6391,-120.4579,12.1,95,100,2.06,US,2024-05-12 10:33:08
243,khao wong,16.7001,104.0902,32.85,49,79,0.02,TH,2024-05-12 10:39:44
244,tsaratanana,-16.7833,47.65,29.41,50,40,5.42,MG,2024-05-12 10:36:20
245,payakumbuh,-0.2202,100.6308,23.52,96,92,0.83,ID,2024-05-12 10:39:44
246,rio san juan,19.6439,-70.0763,24.54,87,1,1.72,DO,2024-05-12 10:39:44
247,roja,57.5,22.8167,8.97,48,34,3.42,LV,2024-05-12 10:39:45
248,mount isa,-20.7333,139.5,22.87,43,4,6.17,AU,2024-05-12 10:39:45
249,nuuk,64.1835,-51.7216,0.34,80,20,3.09,GL,2024-05-12 10:33:43
250,veraval,20.9,70.3667,31.08,62,0,5.82,IN,2024-05-12 10:31:21
251,wanganui,-39.9333,175.05,11.14,76,100,2.53,NZ,2024-05-12 10:31:48
252,lospalos,-8.5186,127.0025,22.55,92,37,3.18,TL,2024-05-12 10:39:46
253,khorramshahr,30.4397,48.1664,42.97,14,2,8.23,IR,2024-05-12 10:39:46
254,egilsstadir,65.2653,-14.3948,10.95,66,40,8.75,IS,2024-05-12 10:39:46
255,colby,39.3958,-101.0524,13.03,88,100,3.58,US,2024-05-12 10:39:46
256,deridder,30.8463,-93.289,18.75,100,100,2.57,US,2024-05-12 10:39:47
257,san luis de la loma,17.2706,-100.8939,24.97,60,100,2.41,MX,2024-05-12 10:33:09
258,axim,4.8699,-2.2405,29.3,76,99,3.14,GH,2024-05-12 10:34:01
259,ayora,39.0585,-1.0563,25.0,29,25,2.13,ES,2024-05-12 10:39:48
260,qaqortoq,60.7167,-46.0333,1.07,82,32,1.23,GL,2024-05-12 10:33:05
261,carnarvon,-24.8667,113.6333,24.46,78,100,5.25,AU,2024-05-12 10:33:18
262,jimeta,9.2833,12.4667,39.55,29,98,3.7,NG,2024-05-12 10:35:35
263,port elizabeth,-33.918,25.5701,22.28,53,0,6.69,ZA,2024-05-12 10:32:57
264,asahi,35.7167,140.65,21.26,74,100,8.09,JP,2024-05-12 10:37:26
265,kone,-21.0595,164.8658,22.14,79,54,2.08,NC,2024-05-12 10:39:49
266,shimanovsk,52.0,127.7,11.81,40,100,2.61,RU,2024-05-12 10:39:49
267,port arthur,38.8,121.2667,20.12,64,0,4.26,CN,2024-05-12 10:39:49
268,alofi,-19.0595,-169.9187,22.94,73,20,4.12,NU,2024-05-12 10:28:31
269,starotitarovskaya,45.2136,37.1439,20.26,52,13,7.26,RU,2024-05-12 10:39:50
270,khandud,36.9513,72.318,6.86,85,100,2.58,AF,2024-05-12 10:39:50
271,hwaseong-si,37.2068,126.8169,20.01,56,61,5.43,KR,2024-05-12 10:30:52
272,berezovyy,51.6667,135.7,2.81,97,97,2.94,RU,2024-05-12 10:30:21
273,abu al matamir,30.9102,30.1744,26.54,37,61,8.26,EG,2024-05-12 10:39:51
274,ulaangom,49.9811,92.0667,17.82,43,78,10.98,MN,2024-05-12 10:33:42
275,hadibu,12.65,54.0333,30.7,65,28,1.06,YE,2024-05-12 10:31:08
276,ola,59.5833,151.2833,0.63,93,80,2.24,RU,2024-05-12 10:35:23
277,hebi,35.8992,114.1925,24.84,15,0,2.03,CN,2024-05-12 10:39:52
278,tazovsky,67.4667,78.7,0.16,99,97,3.97,RU,2024-05-12 10:33:03
279,uliastay,47.7417,96.8444,24.78,10,28,4.49,MN,2024-05-12 10:35:33
280,reggane,26.7158,0.1714,36.32,8,46,8.65,DZ,2024-05-12 10:39:52
281,beja,36.7256,9.1817,32.37,29,3,1.71,TN,2024-05-12 10:39:52
282,charters towers,-20.1,146.2667,21.11,76,29,3.55,AU,2024-05-12 10:39:53
283,qarazhal,48.0078,70.7903,22.83,25,5,2.44,KZ,2024-05-12 10:39:53
284,murray bridge,-35.1167,139.2667,13.52,90,10,2.36,AU,2024-05-12 10:39:53
285,atvidaberg,58.2015,15.9977,19.66,33,41,2.2,SE,2024-05-12 10:39:53
286,mocimboa,-11.3167,40.35,29.14,64,7,4.61,MZ,2024-05-12 10:39:54
287,kristiansund,63.1115,7.732,18.03,63,0,2.06,NO,2024-05-12 10:33:48
288,luz,-19.8014,-45.6856,21.5,62,0,1.6,BR,2024-05-12 10:39:54
289,muntok,-2.0667,105.1833,26.95,86,92,2.87,ID,2024-05-12 10:39:54
290,conduaga,8.862,117.4893,28.78,74,74,0.75,PH,2024-05-12 10:39:55
291,cadale,2.7603,46.3222,29.41,72,67,9.06,SO,2024-05-12 10:33:07
292,san antonio de pale,-1.4014,5.6325,26.84,87,81,3.2,GQ,2024-05-12 10:33:36
293,douz,33.4663,9.0203,30.42,18,100,4.9,TN,2024-05-12 10:39:55
294,figuig (centre),32.1089,-1.2286,29.66,13,98,3.45,MA,2024-05-12 10:34:44
295,jimani,18.4917,-71.8502,24.95,89,4,1.65,DO,2024-05-12 10:39:55
296,hassi messaoud,31.6804,6.0729,30.92,19,23,3.6,DZ,2024-05-12 10:37:48
297,tofol,5.3248,163.0078,28.17,78,92,4.07,FM,2024-05-12 10:33:43
298,shahrak,34.1074,64.3052,20.01,9,0,3.28,AF,2024-05-12 10:39:56
299,gordonvale,-17.0936,145.7842,22.88,97,38,2.2,AU,2024-05-12 10:39:56
300,makurazaki,31.2667,130.3167,20.04,96,100,5.1,JP,2024-05-12 10:35:06
301,bonthe,7.5264,-12.505,30.11,69,100,2.43,SL,2024-05-12 10:33:54
302,san miguel,13.4833,-88.1833,25.87,87,94,0.62,SV,2024-05-12 10:39:57
303,la mana,-0.9333,-79.2167,24.24,95,100,0.47,EC,2024-05-12 10:39:57
304,rahachow,53.0934,30.0495,8.72,57,90,4.93,BY,2024-05-12 10:39:57
305,saint-francois,46.4154,3.9054,23.01,54,0,2.57,FR,2024-05-12 10:34:29
306,chivilcoy,-34.8957,-60.0167,6.37,84,29,4.9,AR,2024-05-12 10:37:06
307,adrar,20.5022,-10.0711,37.06,10,32,5.93,MR,2024-05-12 10:39:58
308,puerto francisco de orellana,-0.4667,-76.9667,22.41,99,100,0.43,EC,2024-05-12 10:35:13
309,mount gambier,-37.8333,140.7667,11.1,97,56,1.18,AU,2024-05-12 10:33:19
310,lata,40.1629,-8.3327,21.76,50,92,3.06,PT,2024-05-12 10:33:59
311,udachny,66.4167,112.4,-0.31,65,100,5.54,RU,2024-05-12 10:30:08
312,glendive,47.1053,-104.7125,11.79,58,0,3.6,US,2024-05-12 10:39:59
313,tazacorte,28.629,-17.9293,21.54,80,20,6.17,ES,2024-05-12 10:39:59
314,myeik,12.4333,98.6,29.69,73,88,3.52,MM,2024-05-12 10:39:59
315,remire-montjoly,4.9167,-52.2667,26.02,100,75,0.51,GF,2024-05-12 10:35:00
316,santo antonio do ica,-3.1022,-67.9397,23.55,98,99,0.86,BR,2024-05-12 10:40:00
317,sena madureira,-9.0656,-68.6569,22.83,89,91,0.16,BR,2024-05-12 10:40:01
318,margate,51.3813,1.3862,19.94,86,100,4.16,GB,2024-05-12 10:33:59
319,coxim,-18.5067,-54.76,20.68,62,0,1.55,BR,2024-05-12 10:40:01
320,chimoio,-19.1164,33.4833,28.19,33,0,3.53,MZ,2024-05-12 10:40:05
321,bouafle,6.9904,-5.7442,27.01,57,100,1.9,CI,2024-05-12 10:35:39
322,launceston,-41.45,147.1667,12.86,93,100,1.03,AU,2024-05-12 10:35:08
323,dudinka,69.4058,86.1778,0.38,89,93,4.02,RU,2024-05-12 10:33:45
324,la ronge,55.1001,-105.2842,5.14,65,100,6.17,CA,2024-05-12 10:40:06
325,labuan,5.2767,115.2417,30.2,79,20,2.06,MY,2024-05-12 10:40:06
326,harnai,30.1005,67.9374,32.71,6,0,2.42,PK,2024-05-12 10:40:06
327,falmouth,50.1544,-5.0711,15.32,88,40,4.63,GB,2024-05-12 10:40:06
328,queenstown,-31.8976,26.8753,17.16,45,36,2.67,ZA,2024-05-12 10:33:50
329,al hufuf,25.3646,49.5653,40.19,7,0,3.6,SA,2024-05-12 10:40:07
330,banswada,18.3833,77.8833,33.08,42,49,6.71,IN,2024-05-12 10:40:07
331,vallenar,-28.5708,-70.7581,11.23,59,13,1.82,CL,2024-05-12 10:40:07
332,hammerfest,70.6634,23.6821,6.25,81,75,2.06,NO,2024-05-12 10:40:07
333,ephraim,39.3597,-111.5863,7.93,85,1,0.14,US,2024-05-12 10:40:08
334,linda,39.1277,-121.5508,21.82,69,0,2.57,US,2024-05-12 10:40:08
335,shizuishan,39.2333,106.7694,25.48,7,0,0.38,CN,2024-05-12 10:40:08
336,sao tome,0.3365,6.7273,30.02,79,100,2.06,ST,2024-05-12 10:39:29
337,kiknur,57.3034,47.2011,5.41,50,99,5.5,RU,2024-05-12 10:40:08
338,college,64.8569,-147.8028,7.32,53,75,2.57,US,2024-05-12 10:33:37
339,tralee,52.2704,-9.7026,13.14,88,100,2.57,IE,2024-05-12 10:33:04
340,touros,-5.1989,-35.4608,26.8,84,67,4.31,BR,2024-05-12 10:34:51
341,villa gesell,-37.2639,-56.973,11.14,60,97,5.25,AR,2024-05-12 10:38:32
342,mezhdurechensk,53.6942,88.0603,16.7,45,37,3.02,RU,2024-05-12 10:27:28
343,thanh hoa,19.8,105.7667,26.85,91,68,2.33,VN,2024-05-12 10:39:40
344,holualoa,19.6228,-155.9522,21.91,87,40,3.09,US,2024-05-12 10:34:31
345,babolsar,36.7025,52.6576,36.18,59,21,3.0,IR,2024-05-12 10:40:10
346,tafresh,34.692,50.013,25.27,22,51,11.29,IR,2024-05-12 10:40:10
347,pundong,-7.9522,110.3486,25.59,91,39,3.23,ID,2024-05-12 10:40:11
348,malango,-2.9627,119.9001,21.04,98,89,0.64,ID,2024-05-12 10:40:12
349,petropavlovka,50.6114,105.3196,19.3,47,80,8.4,RU,2024-05-12 10:40:12
350,itaueira,-7.6033,-43.0256,27.01,66,17,4.06,BR,2024-05-12 10:40:12
351,togur,58.3631,82.8265,13.97,35,71,4.92,RU,2024-05-12 10:40:13
352,madala,9.1044,7.2133,29.55,66,75,3.6,NG,2024-05-12 10:40:14
353,bouca,6.5105,18.2733,40.14,23,66,4.49,CF,2024-05-12 10:40:14
354,dhuusamarreeb,5.535,46.3861,35.43,35,21,0.43,SO,2024-05-12 10:40:14
355,vattalkundu,10.1667,77.7667,32.01,57,88,1.79,IN,2024-05-12 10:40:15
356,vorkuta,67.5,64.0,-4.94,95,66,2.68,RU,2024-05-12 10:40:15
357,taro,-8.3862,115.28,24.0,97,40,0.96,ID,2024-05-12 10:34:39
358,khanty-mansiysk,61.0042,69.0019,14.06,41,20,8.94,RU,2024-05-12 10:40:15
359,yuzhno-kurilsk,44.0306,145.8556,8.54,96,100,9.33,RU,2024-05-12 10:33:51
360,pacocha,-17.5833,-71.3333,17.0,86,99,2.01,PE,2024-05-12 10:40:16
361,roccella ionica,38.322,16.4009,20.6,59,6,2.48,IT,2024-05-12 10:40:16
362,colares,38.7992,-9.4469,20.81,72,20,14.31,PT,2024-05-12 10:40:16
363,sao jose da coroa grande,-8.8978,-35.1478,27.62,73,91,1.27,BR,2024-05-12 10:33:13
364,cerritos,33.8583,-118.0648,16.61,87,100,1.79,US,2024-05-12 10:40:17
365,nanning,22.8167,108.3167,29.25,83,74,2.94,CN,2024-05-12 10:35:47
366,severo-yeniseyskiy,60.3725,93.0408,5.88,63,80,3.13,RU,2024-05-12 10:40:17
367,fossombrone,43.6908,12.8127,24.38,42,9,2.22,IT,2024-05-12 10:40:17
368,tegueste,28.5167,-16.3167,19.81,75,40,10.29,ES,2024-05-12 10:40:17
369,divo,5.8397,-5.36,31.86,61,94,1.89,CI,2024-05-12 10:40:18
370,wyndham,37.6985,-77.6125,11.44,87,20,0.0,US,2024-05-12 10:40:18
371,bardai,11.65,7.2333,33.5,37,100,3.14,NG,2024-05-12 10:33:11
372,karratha,-20.7377,116.8463,25.43,69,17,3.52,AU,2024-05-12 10:31:14
373,nar'yan-mar,67.6713,53.087,-3.83,94,100,5.36,RU,2024-05-12 10:28:46
374,ephrata,40.1798,-76.1788,9.15,85,100,2.57,US,2024-05-12 10:40:19
375,gisborne,-38.6533,178.0042,7.46,82,1,3.15,NZ,2024-05-12 10:32:37
376,pandan,14.0453,124.1694,28.61,82,96,2.98,PH,2024-05-12 10:33:20
377,murudeshwara,14.0943,74.4845,31.06,69,4,5.48,IN,2024-05-12 10:40:19
378,morristown,36.214,-83.2949,11.61,85,0,0.0,US,2024-05-12 10:40:20
379,vadso,70.0744,29.7487,7.49,61,75,2.06,NO,2024-05-12 10:34:34
380,chifeng,42.2683,118.9636,18.47,23,2,4.95,CN,2024-05-12 10:30:23
381,sechura,-5.5569,-80.8222,19.69,79,100,5.6,PE,2024-05-12 10:40:20
382,ukata,10.8312,5.8249,34.0,40,97,3.59,NG,2024-05-12 10:40:21
383,dorgali,40.2926,9.5881,22.51,45,3,2.35,IT,2024-05-12 10:40:21
384,carutapera,-1.195,-46.02,25.54,93,100,0.99,BR,2024-05-12 10:33:36
385,gamba,-2.65,10.0,29.25,77,92,3.4,GA,2024-05-12 10:33:15
386,three points,32.0767,-111.3137,19.35,25,0,3.54,US,2024-05-12 10:40:22
387,port isabel,26.0734,-97.2086,27.79,87,20,0.45,US,2024-05-12 10:40:22
388,hotan,37.0997,79.9269,30.65,6,9,4.23,CN,2024-05-12 10:40:22
389,minab,27.1467,57.0801,36.49,25,2,5.58,IR,2024-05-12 10:40:23
390,lorengau,-2.0226,147.2712,27.63,81,100,2.15,PG,2024-05-12 10:40:23
391,zaozersk,69.4005,32.4476,2.03,95,94,1.78,RU,2024-05-12 10:32:57
392,quezon,7.7303,125.0989,25.8,87,100,1.21,PH,2024-05-12 10:40:23
393,st. john's,47.5649,-52.7093,3.77,97,100,9.77,CA,2024-05-12 10:30:46
394,qarqaraly,49.4058,75.4742,16.78,30,10,1.02,KZ,2024-05-12 10:33:50
395,luderitz,-26.6481,15.1594,22.69,45,0,7.23,NA,2024-05-12 10:34:32
396,talara,-4.5772,-81.2719,20.92,79,100,6.31,PE,2024-05-12 10:40:25
397,westville,41.5414,-86.9006,8.99,95,0,0.0,US,2024-05-12 10:40:25
398,broome,42.2506,-75.833,8.51,91,100,4.12,US,2024-05-12 10:40:25
399,fale old settlement,-9.3852,-171.2468,29.46,75,92,6.11,TK,2024-05-12 10:40:25
400,chhor,25.5167,69.7667,41.55,14,0,5.39,PK,2024-05-12 10:40:25
401,pionerskiy,54.9508,20.2275,12.91,55,15,3.37,RU,2024-05-12 10:40:26
402,kununurra,-15.7667,128.7333,24.99,61,6,1.03,AU,2024-05-12 10:34:40
403,smithers,54.7804,-127.1743,6.18,75,0,1.54,CA,2024-05-12 10:34:03
404,belmonte,-15.8631,-38.8828,26.26,74,15,0.87,BR,2024-05-12 10:40:27
405,albertina,-22.2008,-46.6158,19.93,60,8,1.12,BR,2024-05-12 10:40:27
406,guwahati,26.1862,91.751,34.95,41,40,2.57,IN,2024-05-12 10:31:05
407,camana,-16.6228,-72.7111,18.17,89,97,3.66,PE,2024-05-12 10:31:22
408,ribeira brava,32.65,-17.0667,22.06,79,47,0.26,PT,2024-05-12 10:40:28
409,salatiga,-7.3319,110.4928,28.33,91,98,1.03,ID,2024-05-12 10:36:27
410,nueva gerona,21.8833,-82.8,26.26,80,55,1.39,CU,2024-05-12 10:40:29
411,novohrad-volynskyi,50.5941,27.6165,12.41,41,66,4.75,UA,2024-05-12 10:40:29
412,marquette,46.5333,-87.6335,10.93,62,100,5.36,US,2024-05-12 10:40:29
413,roleystone,-32.1167,116.0667,21.95,69,75,6.69,AU,2024-05-12 10:40:29
414,suhbaatar,50.2314,106.2078,25.64,27,97,5.44,MN,2024-05-12 10:40:29
415,guerrero negro,27.9769,-114.0611,14.84,83,28,6.71,MX,2024-05-12 10:32:59
416,jessen,51.7833,12.95,20.7,37,20,6.17,DE,2024-05-12 10:40:30
417,freetown,8.484,-13.2299,30.02,73,100,3.3,SL,2024-05-12 10:40:30
418,safford,32.834,-109.7076,15.51,25,0,1.54,US,2024-05-12 10:40:30
419,dubbo,-32.25,148.6167,13.07,94,40,3.6,AU,2024-05-12 10:40:30
420,nicoya,10.1483,-85.452,25.57,90,100,0.97,CR,2024-05-12 10:40:33
421,amga,60.8953,131.9608,3.75,93,100,0.15,RU,2024-05-12 10:34:54
422,changji,44.0167,87.3167,29.44,30,0,5.0,CN,2024-05-12 10:40:33
423,labrador city,52.9463,-66.9114,5.1,52,75,0.0,CA,2024-05-12 10:34:25
424,macomb,40.4592,-90.6718,12.23,85,0,1.54,US,2024-05-12 10:40:34
425,antsiranana,-12.2787,49.2917,32.42,48,40,8.23,MG,2024-05-12 10:37:17
426,big bend,-26.8167,31.9333,27.05,65,100,1.54,SZ,2024-05-12 10:40:34
427,side,36.7667,31.3885,20.85,72,41,4.62,TR,2024-05-12 10:40:35
428,nemuro,43.3236,145.575,7.95,96,100,9.55,JP,2024-05-12 10:34:34
429,al bardiyah,31.7561,25.0865,21.51,52,0,9.92,LY,2024-05-12 10:40:35
430,kavaratti,10.5669,72.642,30.25,68,34,4.71,IN,2024-05-12 10:31:48
431,kirensk,57.7853,108.1119,11.65,53,100,4.02,RU,2024-05-12 10:40:36
432,boca do acre,-8.7522,-67.3978,22.63,86,94,0.23,BR,2024-05-12 10:40:36
433,bandarbeyla,9.4942,50.8122,30.87,62,11,4.7,SO,2024-05-12 10:39:00
434,czersk,53.7959,17.9765,14.14,28,3,3.27,PL,2024-05-12 10:40:36
435,plettenberg bay,-34.0527,23.3716,17.22,58,4,2.78,ZA,2024-05-12 10:40:36
436,matiri,-10.75,34.9,23.85,51,9,1.38,TZ,2024-05-12 10:35:50
437,fortuna,40.5982,-124.1573,11.63,97,100,0.0,US,2024-05-12 10:33:28
438,kharp,66.8014,65.8081,-2.94,88,49,1.98,RU,2024-05-12 10:40:37
439,bel ombre,-4.6167,55.4167,31.91,62,40,7.72,SC,2024-05-12 10:33:14
440,rechytsa,52.3617,30.3916,9.06,57,92,5.06,BY,2024-05-12 10:40:37
441,lloydminster,53.2835,-110.0016,4.12,56,0,2.57,CA,2024-05-12 10:40:38
442,boa vista,2.8197,-60.6733,23.99,94,75,3.09,BR,2024-05-12 10:40:39
443,ternate,0.8,127.4,28.41,76,83,2.45,ID,2024-05-12 10:34:07
444,sumenep,-7.0167,113.8667,27.46,78,39,3.92,ID,2024-05-12 10:32:58
445,lillehammer,61.1146,10.4674,19.65,51,84,1.69,NO,2024-05-12 10:40:39
446,toliara,-23.35,43.6667,28.23,53,0,7.6,MG,2024-05-12 10:40:39
447,minna,9.6139,6.5569,30.84,70,40,1.03,NG,2024-05-12 10:40:40
448,sampit,-2.5333,112.95,25.45,97,100,0.46,ID,2024-05-12 10:30:50
449,kabala,9.5833,-11.55,31.58,54,98,2.89,SL,2024-05-12 10:40:40
450,isangel,-19.55,169.2667,23.29,68,67,7.44,VU,2024-05-12 10:34:24
451,kita,13.0349,-9.4895,39.63,13,61,3.59,ML,2024-05-12 10:40:40
452,gazojak,41.1875,61.4036,29.52,13,89,7.54,TM,2024-05-12 10:40:40
453,miyako,39.6367,141.9525,16.18,90,100,5.06,JP,2024-05-12 10:38:35
454,kerikeri,-35.2268,173.9474,9.75,85,83,1.96,NZ,2024-05-12 10:40:41
455,acarau,-2.8856,-40.12,27.21,83,56,4.89,BR,2024-05-12 10:35:00
456,magadan,59.5667,150.8,0.29,93,92,2.09,RU,2024-05-12 10:32:59
457,mahdia,35.5047,11.0622,24.97,44,0,5.53,TN,2024-05-12 10:40:42
458,nowshahr,36.649,51.496,26.97,61,75,2.06,IR,2024-05-12 10:40:42
459,mirnyy,62.5353,113.9611,1.24,99,100,1.79,RU,2024-05-12 10:40:43
460,tame,6.461,-71.73,22.81,93,70,1.42,CO,2024-05-12 10:40:43
461,kiuruvesi,63.65,26.6167,7.86,51,100,2.48,FI,2024-05-12 10:40:43
462,cutral-co,-38.9469,-69.2089,2.17,10,99,1.46,AR,2024-05-12 10:36:56
463,bougaa,36.3329,5.0884,23.99,25,94,4.4,DZ,2024-05-12 10:40:43
464,twon-brass,4.3151,6.2418,28.55,79,100,4.39,NG,2024-05-12 10:40:44
465,itaituba,-4.2761,-55.9836,25.23,95,87,1.04,BR,2024-05-12 10:40:44
466,salym,60.0625,71.4789,15.59,51,100,7.11,RU,2024-05-12 10:40:44
467,codrington,-38.2667,141.9667,11.98,87,94,1.8,AU,2024-05-12 10:40:44
468,machico,32.7,-16.7667,22.06,68,40,7.72,PT,2024-05-12 10:40:44
469,vargem grande,-3.5431,-43.9158,25.72,89,100,0.12,BR,2024-05-12 10:40:45
470,afif,23.9065,42.9172,36.34,16,6,2.97,SA,2024-05-12 10:40:45
471,callao,-12.0667,-77.15,19.29,88,100,1.54,PE,2024-05-12 10:35:55
472,rumilly,45.8667,5.95,25.67,46,0,2.57,FR,2024-05-12 10:40:45
473,ilha de mocambique,-15.0342,40.7358,28.75,62,33,4.71,MZ,2024-05-12 10:40:45
474,san mateo del mar,16.2,-95.0,28.19,66,100,2.55,MX,2024-05-12 10:40:45
475,pella,59.7775,30.8181,11.09,40,58,3.45,RU,2024-05-12 10:40:46
476,shilka,51.85,116.0333,17.48,33,100,3.64,RU,2024-05-12 10:40:46
477,tres arroyos,-38.3739,-60.2798,6.83,75,100,1.93,AR,2024-05-12 10:40:46
478,zhezqazghan,47.7833,67.7667,25.32,18,20,6.0,KZ,2024-05-12 10:40:46
479,matsushima,38.3736,141.0611,18.88,81,100,8.7,JP,2024-05-12 10:40:47
480,sinop,41.7711,34.8709,14.83,58,96,4.23,TR,2024-05-12 10:31:16
481,kolokani,13.5728,-8.0339,39.45,10,29,0.35,ML,2024-05-12 10:40:47
482,ulsteinvik,62.3432,5.8487,20.5,67,68,3.22,NO,2024-05-12 10:39:28
483,huanggang,23.677,116.9996,29.94,93,100,1.12,CN,2024-05-12 10:40:47
484,mujiayingzi,42.1167,118.7833,17.42,24,1,4.79,CN,2024-05-12 10:40:48
485,cacador,-26.7753,-51.015,16.02,88,52,1.98,BR,2024-05-12 10:40:48
486,christchurch,-43.5333,172.6333,5.53,84,20,0.0,NZ,2024-05-12 10:40:48
487,sarangani,5.4033,125.4636,28.99,80,98,7.24,PH,2024-05-12 10:35:32
488,igarka,67.4667,86.5833,-0.55,99,72,5.81,RU,2024-05-12 10:40:49
489,sanctuary point,-35.1114,150.629,16.53,94,100,3.68,AU,2024-05-12 10:40:49
490,punakha,27.5837,89.8598,22.04,84,95,1.06,BT,2024-05-12 10:40:50
491,keningau,5.3378,116.1602,24.68,95,44,0.42,MY,2024-05-12 10:40:50
492,namtsy,62.7161,129.6658,5.0,49,100,3.07,RU,2024-05-12 10:40:50
493,at taj,24.2049,23.2857,31.23,15,0,5.32,LY,2024-05-12 10:40:50
494,maintirano,-18.0667,44.0167,29.07,58,0,4.35,MG,2024-05-12 10:40:50
495,tadine,-21.55,167.8833,22.56,64,83,7.0,NC,2024-05-12 10:40:50
496,ubiaja,6.655,6.3869,24.24,89,100,1.46,NG,2024-05-12 10:40:50
497,mahajanga,-15.7167,46.3167,35.01,38,20,3.09,MG,2024-05-12 10:40:51
498,tahla,34.0485,-4.428,25.93,44,49,2.53,MA,2024-05-12 10:40:52
499,sault ste. marie,46.5168,-84.3333,3.31,100,75,2.06,CA,2024-05-12 10:40:52
500,lianzhou,24.7811,112.3825,22.26,89,93,1.7,CN,2024-05-12 10:40:52
501,natal,-5.795,-35.2094,25.36,100,75,2.06,BR,2024-05-12 10:40:52
502,rabo de peixe,37.8,-25.5833,17.77,99,40,6.17,PT,2024-05-12 10:40:53
503,santa eulalia,-11.85,-76.6833,2.78,72,82,0.46,PE,2024-05-12 10:40:53
504,taoudenni,22.6783,-3.9836,40.87,5,9,7.07,ML,2024-05-12 10:40:54
505,kimbe,-5.5502,150.1429,25.76,93,100,1.72,PG,2024-05-12 10:40:54
506,pucheng,27.9233,118.5333,17.97,98,100,2.05,CN,2024-05-12 10:40:54
507,corinto,37.9407,22.9573,22.76,31,1,2.42,GR,2024-05-12 10:40:55
508,palangkaraya,-2.2,113.8333,25.43,96,100,1.17,ID,2024-05-12 10:37:41
509,kiunga,-6.1219,141.2906,24.42,98,100,1.73,PG,2024-05-12 10:40:55
510,zhuanghe,39.7008,122.9911,18.03,42,4,4.04,CN,2024-05-12 10:40:56
511,sandnessjoen,66.0217,12.6316,10.29,95,100,6.68,NO,2024-05-12 10:33:38
512,baharly,38.4362,57.4316,36.29,14,70,4.74,TM,2024-05-12 10:40:56
513,curitibanos,-27.2828,-50.5844,15.32,95,74,1.15,BR,2024-05-12 10:40:56
514,port moresby,-9.4431,147.1797,26.68,78,40,7.72,PG,2024-05-12 10:37:26
515,tranqueras,-31.2,-55.75,15.81,99,100,2.97,UY,2024-05-12 10:40:57
516,tionk essil,12.7856,-16.5217,30.03,43,13,3.53,SN,2024-05-12 10:40:57
517,viqueque,-8.8673,126.3658,25.4,86,17,1.81,TL,2024-05-12 10:40:57
518,cururupu,-1.8283,-44.8683,25.94,93,100,0.96,BR,2024-05-12 10:40:57
519,gargalianoi,37.0667,21.6333,21.34,56,6,3.34,GR,2024-05-12 10:40:58
520,shalqar,47.8333,59.6,26.55,21,76,12.62,KZ,2024-05-12 10:40:58
521,zav'yalovo,56.7847,53.3776,6.89,77,100,6.71,RU,2024-05-12 10:40:58
522,kota belud,6.351,116.4305,28.35,82,20,1.49,MY,2024-05-12 10:40:58
523,dompu,-8.5356,118.4622,24.64,88,63,1.85,ID,2024-05-12 10:40:58
524,saint-philippe,-21.3585,55.7679,29.77,80,28,5.89,RE,2024-05-12 10:40:51
525,grand-lahou,5.1367,-5.0242,30.7,67,100,2.99,CI,2024-05-12 10:40:59
526,lautoka,-17.6167,177.4667,22.92,68,40,4.63,FJ,2024-05-12 10:37:13
527,ciudad lazaro cardenas,17.9583,-102.2,22.33,71,88,1.34,MX,2024-05-12 10:41:00
528,akkol',48.7833,53.2,23.3,36,100,4.19,KZ,2024-05-12 10:41:00
529,mudgee,-32.5943,149.5871,12.01,84,58,1.41,AU,2024-05-12 10:41:00
530,susanville,40.4163,-120.653,7.03,63,4,1.95,US,2024-05-12 10:41:01
531,sheki,41.1919,47.1706,24.48,47,58,3.59,AZ,2024-05-12 10:41:01
532,bengkulu,-3.8004,102.2655,28.1,78,97,1.19,ID,2024-05-12 10:40:40
533,yeniseysk,58.4497,92.1703,13.86,35,93,4.02,RU,2024-05-12 10:41:02
534,bismarck,46.8083,-100.7837,14.89,64,0,4.12,US,2024-05-12 10:41:02
535,ambatondrazaka,-17.8333,48.4167,20.96,79,96,3.28,MG,2024-05-12 10:41:02
536,newman,37.3138,-121.0208,17.81,75,0,0.89,US,2024-05-12 10:41:02
537,betio village,1.358,172.9211,28.39,77,89,2.72,KI,2024-05-12 10:41:02
538,hithadhoo,-0.6,73.0833,29.0,77,100,3.81,MV,2024-05-12 10:34:04
539,cidade velha,14.9167,-23.6167,27.26,50,20,5.14,CV,2024-05-12 10:41:03
540,fada,9.5667,8.3,31.23,50,98,2.26,NG,2024-05-12 10:41:03
541,puerto gaitan,4.3133,-72.0816,24.19,91,78,1.4,CO,2024-05-12 10:41:03
542,orkeny,47.1299,19.4332,21.13,58,95,3.28,HU,2024-05-12 10:41:04
543,nadym,65.5333,72.5167,1.65,98,99,1.69,RU,2024-05-12 10:41:04
544,tshabong,-26.05,22.45,30.35,13,0,2.15,BW,2024-05-12 10:41:04
545,kananga,-5.8958,22.4178,32.74,45,29,1.81,CD,2024-05-12 10:41:04
546,islamkot,24.6997,70.177,38.72,18,0,5.81,PK,2024-05-12 10:41:04
547,al jawf,29.5,38.75,32.07,17,15,2.05,SA,2024-05-12 10:41:04
548,dunedin,-45.8742,170.5036,11.0,87,100,2.68,NZ,2024-05-12 10:36:22
549,oppdal,62.5943,9.6912,15.66,55,100,1.72,NO,2024-05-12 10:41:05
550,pemangkat,1.1667,108.9667,28.41,76,52,2.44,ID,2024-05-12 10:41:05
551,amta,22.58,88.0083,32.96,75,76,7.18,IN,2024-05-12 10:41:05
552,port blair,11.6667,92.75,32.02,74,40,3.6,IN,2024-05-12 10:41:05
553,shelbyville,35.4834,-86.4603,11.65,100,0,0.0,US,2024-05-12 10:41:05
554,crane,31.3974,-102.3501,18.58,93,96,5.43,US,2024-05-12 10:41:06
555,el granada,37.5027,-122.4694,15.16,92,100,4.12,US,2024-05-12 10:41:06
556,ayden,35.4727,-77.4155,13.05,96,0,0.0,US,2024-05-12 10:41:06
557,zakynthos,37.7914,20.8953,22.68,64,20,3.6,GR,2024-05-12 10:41:06
558,nyurba,63.2842,118.3319,1.85,97,100,5.48,RU,2024-05-12 10:41:07
559,krasnyy kut,50.95,46.9667,9.73,76,100,8.88,RU,2024-05-12 10:41:07
560,obidos,-1.9175,-55.5181,23.62,97,97,2.63,BR,2024-05-12 10:41:07
561,port sudan,19.6175,37.2164,34.84,46,2,4.57,SD,2024-05-12 10:41:07
562,mermoz boabab,14.7065,-17.4758,29.31,78,0,4.12,SN,2024-05-12 10:41:07
563,labytnangi,66.6572,66.4183,-2.57,89,41,5.27,RU,2024-05-12 10:37:13
564,arraial do cabo,-22.9661,-42.0278,21.92,94,0,1.03,BR,2024-05-12 10:41:07
565,dolores,-36.3132,-57.6792,8.6,69,95,5.17,AR,2024-05-12 10:41:08
566,cockburn town,21.4612,-71.1419,25.84,84,0,2.1,TC,2024-05-12 10:41:08
567,papao,-17.75,-149.55,25.82,81,5,6.42,PF,2024-05-12 10:41:08
568,kattivakkam,13.2167,80.3167,34.5,69,54,7.13,IN,2024-05-12 10:41:09
569,abepura,-2.6333,140.5833,27.45,83,20,2.57,ID,2024-05-12 10:41:09
570,forio,40.7342,13.8646,24.32,75,1,3.01,IT,2024-05-12 10:41:09
571,priozersk,61.0393,30.1291,12.22,47,22,1.86,RU,2024-05-12 10:41:09
572,nkowakowa,-23.8878,30.2871,22.87,61,98,2.35,ZA,2024-05-12 10:41:10
573,phan rang-thap cham,11.5667,108.9833,29.57,71,93,3.73,VN,2024-05-12 10:40:02
574,selfoss,63.9331,-20.9971,10.02,83,100,3.28,IS,2024-05-12 10:41:10
575,salalah,17.0151,54.0924,32.05,70,20,7.2,OM,2024-05-12 10:38:55
576,hailey,43.5196,-114.3153,8.51,61,0,6.17,US,2024-05-12 10:41:10
577,chui,-33.6971,-53.4616,14.69,82,99,3.61,UY,2024-05-12 10:41:11
578,santiago de cao,-7.9589,-79.2392,17.07,94,100,1.54,PE,2024-05-12 10:41:11
579,illizi,26.4833,8.4667,31.89,13,3,7.41,DZ,2024-05-12 10:41:11
580,aitape,-3.1374,142.3475,26.95,89,94,1.96,PG,2024-05-12 10:41:11
581,timbuktu,16.7735,-3.0074,42.19,5,1,6.69,ML,2024-05-12 10:41:12
582,moranbah,-22.0016,148.0466,21.77,63,28,4.6,AU,2024-05-12 10:41:12
583,ust'-ilimsk,58.0006,102.6619,13.58,29,14,5.81,RU,2024-05-12 10:41:12
584,prozor,43.8222,17.6092,18.83,47,46,1.16,BA,2024-05-12 10:41:12
585,yeosu,34.7546,127.6599,16.57,62,97,4.96,KR,2024-05-12 10:40:05
586,tevriz,57.509,72.4042,15.46,53,68,4.22,RU,2024-05-12 10:41:13
587,iguatu,-6.3594,-39.2986,26.6,61,9,0.62,BR,2024-05-12 10:41:13
588,lysianka,49.2523,30.8295,11.01,53,64,3.96,UA,2024-05-12 10:41:13
589,bodo,67.28,14.405,8.3,95,75,4.12,NO,2024-05-12 10:41:13
590,wilhelmstadt,52.5139,13.1915,21.21,41,19,2.68,DE,2024-05-12 10:41:14
591,miquelon,47.0975,-56.3814,4.0,92,100,14.66,PM,2024-05-12 10:41:14
592,pervomayskiy,53.2485,40.2871,8.09,46,100,4.39,RU,2024-05-12 10:41:14
593,akureyri,65.6835,-18.0878,3.96,93,100,1.54,IS,2024-05-12 10:39:41
594,mitu,1.1983,-70.1733,22.01,99,68,0.51,CO,2024-05-12 10:41:14
595,krasnogorskoye,52.2953,86.1979,14.49,52,5,1.87,RU,2024-05-12 10:41:14
596,san jose de feliciano,-30.3845,-58.7517,12.81,95,100,5.15,AR,2024-05-12 10:41:15
